[
  {
    "id": "shop1",
    "name": "Fresh Mart Srikalahasti",
    "slug": "fresh-mart",
    "address": "Temple Street, Srikalahasti, AP 517644",
    "lat": 13.7510,
    "lng": 79.7010,
    "category": "Groceries",
    "rating": 4.5,
    "deliveryTime": "10-15 min",
    "image": "https://images.unsplash.com/photo-1604719312566-8912e9227c6a?w=600",
    "isOpen": true,
    "manager_id": "user2"
  },
  {
    "id": "shop2",
    "name": "Green Valley Vegetables",
    "slug": "green-valley",
    "address": "Market Road, Srikalahasti, AP 517644",
    "lat": 13.7520,
    "lng": 79.7020,
    "category": "Vegetables",
    "rating": 4.7,
    "deliveryTime": "12-18 min",
    "image": "https://images.unsplash.com/photo-1542838132-92c53300491e?w=600",
    "isOpen": true,
    "manager_id": "user2"
  },
  {
    "id": "shop3",
    "name": "Daily Needs Store",
    "slug": "daily-needs",
    "address": "Gandhi Nagar, Srikalahasti, AP 517644",
    "lat": 13.7530,
    "lng": 79.7030,
    "category": "Groceries",
    "rating": 4.3,
    "deliveryTime": "15-20 min",
    "image": "https://images.unsplash.com/photo-1583394293214-28ded15ee548?w=600",
    "isOpen": true,
    "manager_id": "user3"
  },
  {
    "id": "shop4",
    "name": "Fruit Paradise",
    "slug": "fruit-paradise",
    "address": "Bypass Road, Srikalahasti, AP 517644",
    "lat": 13.7540,
    "lng": 79.7040,
    "category": "Fruits",
    "rating": 4.6,
    "deliveryTime": "10-12 min",
    "image": "https://images.unsplash.com/photo-1488459716781-31db52582fe9?w=600",
    "isOpen": true,
    "manager_id": "user3"
  },
  {
    "id": "shop5",
    "name": "Quick Snacks Hub",
    "slug": "quick-snacks",
    "address": "College Road, Srikalahasti, AP 517644",
    "lat": 13.7550,
    "lng": 79.7050,
    "category": "Snacks",
    "rating": 4.4,
    "deliveryTime": "8-10 min",
    "image": "https://images.unsplash.com/photo-1534723328310-e82dad3ee43f?w=600",
    "isOpen": false,
    "manager_id": "user2"
  }
]
